{
  "map": {
    "cities": [
      {
        "id": 0,
        "name": "Granollers",
        "lat": 41.60821,
        "lon": 2.287789
      },
      {
        "id": 1,
        "name": "Valladolid",
        "lat": 41.65295,
        "lon": -4.728388
      },
      {
        "id": 2,
        "name": "Lloret de Mar",
        "lat": 41.69878,
        "lon": 2.847584
      },
      {
        "id": 3,
        "name": "Calahorra",
        "lat": 42.30372,
        "lon": -1.965034
      },
      {
        "id": 4,
        "name": "Vilafranca del Pened\u00e8s",
        "lat": 41.34509,
        "lon": 1.699849
      },
      {
        "id": 5,
        "name": "M\u00e9rida",
        "lat": 38.91586,
        "lon": -6.345606
      },
      {
        "id": 6,
        "name": "Castrill\u00f3n",
        "lat": 43.55,
        "lon": -5.967
      },
      {
        "id": 7,
        "name": "Galapagar",
        "lat": 40.57736,
        "lon": -4.00357
      },
      {
        "id": 8,
        "name": "Santa Perp\u00e8tua de Mogoda",
        "lat": 41.53486,
        "lon": 2.178988
      },
      {
        "id": 9,
        "name": "Pineda de Mar",
        "lat": 41.62751,
        "lon": 2.689454
      },
      {
        "id": 10,
        "name": "Orihuela",
        "lat": 38.08395,
        "lon": -0.9447829
      },
      {
        "id": 11,
        "name": "Pozuelo de Alarc\u00f3n",
        "lat": 40.4352,
        "lon": -3.813062
      },
      {
        "id": 12,
        "name": "Dos Hermanas",
        "lat": 37.28318,
        "lon": -5.922242
      },
      {
        "id": 13,
        "name": "Leioa",
        "lat": 43.3261,
        "lon": -2.987704
      },
      {
        "id": 14,
        "name": "Avil\u00e9s",
        "lat": 43.55577,
        "lon": -5.927617
      },
      {
        "id": 15,
        "name": "Sestao",
        "lat": 43.30964,
        "lon": -3.00694
      },
      {
        "id": 16,
        "name": "Durango",
        "lat": 43.16907,
        "lon": -2.632655
      },
      {
        "id": 17,
        "name": "Loja",
        "lat": 37.16884,
        "lon": -4.151471
      },
      {
        "id": 18,
        "name": "Alcal\u00e1 de Guada\u00edra",
        "lat": 37.33833,
        "lon": -5.844032
      },
      {
        "id": 19,
        "name": "Collado Villalba",
        "lat": 40.62725,
        "lon": -4.008587
      },
      {
        "id": 20,
        "name": "Mazarr\u00f3n",
        "lat": 37.59907,
        "lon": -1.313669
      },
      {
        "id": 21,
        "name": "Segovia",
        "lat": 40.94943,
        "lon": -4.119209
      },
      {
        "id": 22,
        "name": "Coria del R\u00edo",
        "lat": 37.28506,
        "lon": -6.051814
      },
      {
        "id": 23,
        "name": "Sanl\u00facar de Barrameda",
        "lat": 36.77882,
        "lon": -6.354198
      },
      {
        "id": 24,
        "name": "Ponferrada",
        "lat": 42.54633,
        "lon": -6.590833
      },
      {
        "id": 25,
        "name": "Vitoria-Gasteiz",
        "lat": 42.84641,
        "lon": -2.667893
      },
      {
        "id": 26,
        "name": "Huesca",
        "lat": 42.1401,
        "lon": -0.408898
      },
      {
        "id": 27,
        "name": "J\u00e1vea/X\u00e0bia",
        "lat": 38.79546,
        "lon": 0.1166293
      },
      {
        "id": 28,
        "name": "Puerto de Santa Mar\u00eda (El)",
        "lat": 36.59695,
        "lon": -6.227526
      },
      {
        "id": 29,
        "name": "Cieza",
        "lat": 43.21667,
        "lon": -4.083333
      },
      {
        "id": 30,
        "name": "Huelva",
        "lat": 37.2571,
        "lon": -6.949555
      },
      {
        "id": 31,
        "name": "Benalm\u00e1dena",
        "lat": 36.59523,
        "lon": -4.573368
      },
      {
        "id": 32,
        "name": "Baza",
        "lat": 37.49065,
        "lon": -2.774473
      },
      {
        "id": 33,
        "name": "Colmenar Viejo",
        "lat": 40.65895,
        "lon": -3.766043
      },
      {
        "id": 34,
        "name": "Sant Cugat del Vall\u00e8s",
        "lat": 41.47186,
        "lon": 2.082139
      },
      {
        "id": 35,
        "name": "Sant Feliu de Llobregat",
        "lat": 41.38094,
        "lon": 2.045171
      },
      {
        "id": 36,
        "name": "Aranjuez",
        "lat": 40.03209,
        "lon": -3.603288
      },
      {
        "id": 37,
        "name": "Aspe",
        "lat": 38.34857,
        "lon": -0.7694142
      },
      {
        "id": 38,
        "name": "Maracena",
        "lat": 37.20568,
        "lon": -3.636805
      },
      {
        "id": 39,
        "name": "Villanueva de la Serena",
        "lat": 38.97399,
        "lon": -5.800302
      },
      {
        "id": 40,
        "name": "Tres Cantos",
        "lat": 40.59907,
        "lon": -3.712258
      },
      {
        "id": 41,
        "name": "Riba-roja de T\u00faria",
        "lat": 39.54548,
        "lon": -0.5667182
      },
      {
        "id": 42,
        "name": "Mislata",
        "lat": 39.47624,
        "lon": -0.4193065
      },
      {
        "id": 43,
        "name": "Torrevieja",
        "lat": 37.97747,
        "lon": -0.6832271
      },
      {
        "id": 44,
        "name": "Petrer",
        "lat": 38.47744,
        "lon": -0.7742523
      },
      {
        "id": 45,
        "name": "Portugalete",
        "lat": 43.32066,
        "lon": -3.020252
      },
      {
        "id": 46,
        "name": "X\u00e0tiva",
        "lat": 38.98887,
        "lon": -0.5156137
      },
      {
        "id": 47,
        "name": "N\u00edjar",
        "lat": 36.96576,
        "lon": -2.20651
      },
      {
        "id": 48,
        "name": "Villena",
        "lat": 38.63634,
        "lon": -0.8661389
      },
      {
        "id": 49,
        "name": "Coslada",
        "lat": 40.42594,
        "lon": -3.565464
      },
      {
        "id": 50,
        "name": "San Sebasti\u00e1n de los Reyes",
        "lat": 40.54751,
        "lon": -3.626394
      },
      {
        "id": 51,
        "name": "Mutxamel",
        "lat": 38.41235,
        "lon": -0.4432408
      },
      {
        "id": 52,
        "name": "Pontevedra",
        "lat": 42.43362,
        "lon": -8.648053
      },
      {
        "id": 53,
        "name": "Almer\u00eda",
        "lat": 36.84016,
        "lon": -2.467922
      },
      {
        "id": 54,
        "name": "Calafell",
        "lat": 41.20056,
        "lon": 1.568441
      },
      {
        "id": 55,
        "name": "Quart de Poblet",
        "lat": 39.48259,
        "lon": -0.4450733
      },
      {
        "id": 56,
        "name": "Manises",
        "lat": 39.49073,
        "lon": -0.4558824
      },
      {
        "id": 57,
        "name": "M\u00f3stoles",
        "lat": 40.32277,
        "lon": -3.865741
      },
      {
        "id": 58,
        "name": "Olesa de Montserrat",
        "lat": 41.5434,
        "lon": 1.888153
      },
      {
        "id": 59,
        "name": "Premi\u00e0 de Mar",
        "lat": 41.48958,
        "lon": 2.356536
      },
      {
        "id": 60,
        "name": "Nerja",
        "lat": 36.74503,
        "lon": -3.876649
      },
      {
        "id": 61,
        "name": "Ejido (El)",
        "lat": 36.77506,
        "lon": -2.812738
      },
      {
        "id": 62,
        "name": "Vigo",
        "lat": 42.23136,
        "lon": -8.712447
      },
      {
        "id": 63,
        "name": "Tomelloso",
        "lat": 39.15775,
        "lon": -3.020807
      },
      {
        "id": 64,
        "name": "Burjassot",
        "lat": 39.51051,
        "lon": -0.4149856
      },
      {
        "id": 65,
        "name": "Igualada",
        "lat": 41.57877,
        "lon": 1.617193
      },
      {
        "id": 66,
        "name": "Castell\u00f3n de la Plana/Castell\u00f3 de la Plana",
        "lat": 39.98598,
        "lon": -0.0376709
      },
      {
        "id": 67,
        "name": "Carballo",
        "lat": 43.21217,
        "lon": -8.691041
      },
      {
        "id": 68,
        "name": "Almonte",
        "lat": 37.26254,
        "lon": -6.51724
      },
      {
        "id": 69,
        "name": "Torres de Cotillas (Las)",
        "lat": 38.02786,
        "lon": -1.240312
      },
      {
        "id": 70,
        "name": "Conil de la Frontera",
        "lat": 36.27675,
        "lon": -6.088436
      },
      {
        "id": 71,
        "name": "Alc\u00e1zar de San Juan",
        "lat": 39.38993,
        "lon": -3.210137
      },
      {
        "id": 72,
        "name": "Priego de C\u00f3rdoba",
        "lat": 37.4389,
        "lon": -4.194839
      },
      {
        "id": 73,
        "name": "Burgos",
        "lat": 42.34087,
        "lon": -3.699731
      },
      {
        "id": 74,
        "name": "Sant Joan Desp\u00ed",
        "lat": 41.36769,
        "lon": 2.056065
      },
      {
        "id": 75,
        "name": "Bara\u00f1ain",
        "lat": 42.80492,
        "lon": -1.685519
      },
      {
        "id": 76,
        "name": "Eibar",
        "lat": 43.18418,
        "lon": -2.473289
      },
      {
        "id": 77,
        "name": "Coru\u00f1a (A)",
        "lat": 43.37087,
        "lon": -8.395835
      },
      {
        "id": 78,
        "name": "Palencia",
        "lat": 42.01246,
        "lon": -4.531175
      },
      {
        "id": 79,
        "name": "Marbella",
        "lat": 36.50994,
        "lon": -4.886352
      },
      {
        "id": 80,
        "name": "Rub\u00ed",
        "lat": 41.49233,
        "lon": 2.031262
      },
      {
        "id": 81,
        "name": "Lorca",
        "lat": 37.67131,
        "lon": -1.698792
      },
      {
        "id": 82,
        "name": "Vilanova i la Geltr\u00fa",
        "lat": 41.22415,
        "lon": 1.725568
      },
      {
        "id": 83,
        "name": "Lugo",
        "lat": 43.01208,
        "lon": -7.555851
      },
      {
        "id": 84,
        "name": "Culleredo",
        "lat": 43.31584,
        "lon": -8.384923
      },
      {
        "id": 85,
        "name": "Algeciras",
        "lat": 36.12978,
        "lon": -5.447698
      },
      {
        "id": 86,
        "name": "Vendrell (El)",
        "lat": 41.22042,
        "lon": 1.534845
      },
      {
        "id": 87,
        "name": "Figueres",
        "lat": 42.2675,
        "lon": 2.96084
      },
      {
        "id": 88,
        "name": "Molina de Segura",
        "lat": 38.05092,
        "lon": -1.210992
      },
      {
        "id": 89,
        "name": "Ames",
        "lat": 42.9,
        "lon": -8.633333
      },
      {
        "id": 90,
        "name": "Pi\u00e9lagos",
        "lat": 43.38657,
        "lon": -3.957237
      },
      {
        "id": 91,
        "name": "Santa Pola",
        "lat": 38.1923,
        "lon": -0.5552066
      },
      {
        "id": 92,
        "name": "Santander",
        "lat": 43.46096,
        "lon": -3.807934
      },
      {
        "id": 93,
        "name": "Murcia",
        "lat": 37.98344,
        "lon": -1.12989
      },
      {
        "id": 94,
        "name": "Calatayud",
        "lat": 41.35432,
        "lon": -1.647009
      },
      {
        "id": 95,
        "name": "C\u00e1diz",
        "lat": 36.52969,
        "lon": -6.292657
      },
      {
        "id": 96,
        "name": "Arganda del Rey",
        "lat": 40.30095,
        "lon": -3.43808
      },
      {
        "id": 97,
        "name": "Boadilla del Monte",
        "lat": 40.40525,
        "lon": -3.876992
      },
      {
        "id": 98,
        "name": "Elda",
        "lat": 38.47803,
        "lon": -0.7904639
      },
      {
        "id": 99,
        "name": "Zamora",
        "lat": 41.50368,
        "lon": -5.743778
      },
      {
        "id": 100,
        "name": "Toledo",
        "lat": 39.85678,
        "lon": -4.024476
      },
      {
        "id": 101,
        "name": "Rozas de Madrid (Las)",
        "lat": 40.31007,
        "lon": -4.490765
      },
      {
        "id": 102,
        "name": "Alcorc\u00f3n",
        "lat": 40.34912,
        "lon": -3.828811
      },
      {
        "id": 103,
        "name": "Hell\u00edn",
        "lat": 38.51216,
        "lon": -1.70331
      },
      {
        "id": 104,
        "name": "Tomares",
        "lat": 37.37404,
        "lon": -6.045198
      },
      {
        "id": 105,
        "name": "Ripollet",
        "lat": 41.49736,
        "lon": 2.155674
      },
      {
        "id": 106,
        "name": "Ontinyent",
        "lat": 38.82102,
        "lon": -0.610547
      },
      {
        "id": 107,
        "name": "Rinc\u00f3n de la Victoria",
        "lat": 36.71566,
        "lon": -4.275504
      },
      {
        "id": 108,
        "name": "Alaqu\u00e0s",
        "lat": 39.45708,
        "lon": -0.4610681
      },
      {
        "id": 109,
        "name": "Chiclana de la Frontera",
        "lat": 36.41915,
        "lon": -6.149412
      },
      {
        "id": 110,
        "name": "Motril",
        "lat": 36.74467,
        "lon": -3.516718
      },
      {
        "id": 111,
        "name": "Fuengirola",
        "lat": 36.53901,
        "lon": -4.624353
      },
      {
        "id": 112,
        "name": "Xirivella",
        "lat": 39.46669,
        "lon": -0.4277937
      },
      {
        "id": 113,
        "name": "Getxo",
        "lat": 43.36229,
        "lon": -3.012567
      },
      {
        "id": 114,
        "name": "And\u00fajar",
        "lat": 38.03675,
        "lon": -4.054391
      },
      {
        "id": 115,
        "name": "Cabra",
        "lat": 37.47437,
        "lon": -4.425931
      },
      {
        "id": 116,
        "name": "Prat de Llobregat (El)",
        "lat": 41.33047,
        "lon": 2.093149
      },
      {
        "id": 117,
        "name": "Aranda de Duero",
        "lat": 41.67171,
        "lon": -3.686569
      },
      {
        "id": 118,
        "name": "Esparreguera",
        "lat": 41.53889,
        "lon": 1.870692
      },
      {
        "id": 119,
        "name": "Mairena del Alcor",
        "lat": 37.37316,
        "lon": -5.747595
      },
      {
        "id": 120,
        "name": "Sagunto/Sagunt",
        "lat": 39.68077,
        "lon": -0.2779768
      },
      {
        "id": 121,
        "name": "Pobla de Vallbona (la)",
        "lat": 39.59043,
        "lon": -0.5529038
      },
      {
        "id": 122,
        "name": "Elche/Elx",
        "lat": 38.2655,
        "lon": -0.6984587
      },
      {
        "id": 123,
        "name": "Cerdanyola del Vall\u00e8s",
        "lat": 41.49137,
        "lon": 2.140769
      },
      {
        "id": 124,
        "name": "Carmona",
        "lat": 37.47102,
        "lon": -5.642328
      },
      {
        "id": 125,
        "name": "L\u00ednea de la Concepci\u00f3n (La)",
        "lat": 36.16118,
        "lon": -5.348256
      },
      {
        "id": 126,
        "name": "\u00c1guilas",
        "lat": 37.4038,
        "lon": -1.581161
      },
      {
        "id": 127,
        "name": "Cambrils",
        "lat": 41.06705,
        "lon": 1.056419
      },
      {
        "id": 128,
        "name": "Sant Feliu de Gu\u00edxols",
        "lat": 41.78058,
        "lon": 3.030733
      },
      {
        "id": 129,
        "name": "Villaviciosa de Od\u00f3n",
        "lat": 40.3571,
        "lon": -3.90059
      },
      {
        "id": 130,
        "name": "Salamanca",
        "lat": 40.96497,
        "lon": -5.663047
      },
      {
        "id": 131,
        "name": "Sant Pere de Ribes",
        "lat": 41.2591,
        "lon": 1.775418
      },
      {
        "id": 132,
        "name": "Arteixo",
        "lat": 43.30451,
        "lon": -8.511387
      },
      {
        "id": 133,
        "name": "Badajoz",
        "lat": 38.8786,
        "lon": -6.970284
      },
      {
        "id": 134,
        "name": "Erandio",
        "lat": 43.30746,
        "lon": -2.946418
      },
      {
        "id": 135,
        "name": "V\u00edcar",
        "lat": 36.83145,
        "lon": -2.642515
      },
      {
        "id": 136,
        "name": "Puerto Real",
        "lat": 36.52912,
        "lon": -6.191895
      },
      {
        "id": 137,
        "name": "Aldaia",
        "lat": 39.46505,
        "lon": -0.4613582
      },
      {
        "id": 138,
        "name": "Miranda de Ebro",
        "lat": 42.68734,
        "lon": -2.947593
      },
      {
        "id": 139,
        "name": "Crevillent",
        "lat": 38.24703,
        "lon": -0.803492
      },
      {
        "id": 140,
        "name": "Mollet del Vall\u00e8s",
        "lat": 41.54052,
        "lon": 2.213529
      },
      {
        "id": 141,
        "name": "Valencia",
        "lat": 39.47024,
        "lon": -0.3768049
      },
      {
        "id": 142,
        "name": "Torremolinos",
        "lat": 36.62179,
        "lon": -4.500273
      },
      {
        "id": 143,
        "name": "Fuenlabrada",
        "lat": 40.28387,
        "lon": -3.800329
      },
      {
        "id": 144,
        "name": "Alf\u00e0s del Pi (l')",
        "lat": 38.58055,
        "lon": -0.1032094
      },
      {
        "id": 145,
        "name": "Arcos de la Frontera",
        "lat": 36.75078,
        "lon": -5.812395
      },
      {
        "id": 146,
        "name": "Talavera de la Reina",
        "lat": 39.9598,
        "lon": -4.834432
      },
      {
        "id": 147,
        "name": "Armilla",
        "lat": 37.1401,
        "lon": -3.617981
      },
      {
        "id": 148,
        "name": "Paiporta",
        "lat": 39.42845,
        "lon": -0.4188691
      },
      {
        "id": 149,
        "name": "Estrada (A)",
        "lat": 42.68958,
        "lon": -8.491302
      },
      {
        "id": 150,
        "name": "Ciudad Real",
        "lat": 38.9861,
        "lon": -3.927263
      },
      {
        "id": 151,
        "name": "Onda",
        "lat": 39.9653,
        "lon": -0.2626455
      },
      {
        "id": 152,
        "name": "Villarrobledo",
        "lat": 39.26726,
        "lon": -2.607643
      },
      {
        "id": 153,
        "name": "Parla",
        "lat": 40.23754,
        "lon": -3.772741
      },
      {
        "id": 154,
        "name": "Lleida",
        "lat": 41.61415,
        "lon": 0.6257825
      },
      {
        "id": 155,
        "name": "Sevilla",
        "lat": 37.38264,
        "lon": -5.996295
      },
      {
        "id": 156,
        "name": "Ponteareas",
        "lat": 42.17637,
        "lon": -8.502382
      },
      {
        "id": 157,
        "name": "\u00dabeda",
        "lat": 38.00809,
        "lon": -3.368519
      },
      {
        "id": 158,
        "name": "Carcaixent",
        "lat": 39.12122,
        "lon": -0.4496824
      },
      {
        "id": 159,
        "name": "Jumilla",
        "lat": 38.47595,
        "lon": -1.322032
      },
      {
        "id": 160,
        "name": "Algemes\u00ed",
        "lat": 39.19387,
        "lon": -0.4347581
      },
      {
        "id": 161,
        "name": "Mieres",
        "lat": 43.25179,
        "lon": -5.776198
      },
      {
        "id": 162,
        "name": "Teruel",
        "lat": 40.34411,
        "lon": -1.10691
      },
      {
        "id": 163,
        "name": "Yecla",
        "lat": 38.61524,
        "lon": -1.118017
      },
      {
        "id": 164,
        "name": "Ourense",
        "lat": 42.34001,
        "lon": -7.864641
      },
      {
        "id": 165,
        "name": "Valdemoro",
        "lat": 40.19269,
        "lon": -3.679874
      },
      {
        "id": 166,
        "name": "Nar\u00f3n",
        "lat": 43.53705,
        "lon": -8.180766
      },
      {
        "id": 167,
        "name": "Ja\u00e9n",
        "lat": 37.76574,
        "lon": -3.789518
      },
      {
        "id": 168,
        "name": "Plasencia",
        "lat": 40.0305,
        "lon": -6.088251
      },
      {
        "id": 169,
        "name": "Altea",
        "lat": 38.60032,
        "lon": -0.0491708
      },
      {
        "id": 170,
        "name": "Mijas",
        "lat": 36.5957,
        "lon": -4.637619
      },
      {
        "id": 171,
        "name": "Sant Adri\u00e0 de Bes\u00f2s",
        "lat": 41.4306,
        "lon": 2.218239
      },
      {
        "id": 172,
        "name": "Mairena del Aljarafe",
        "lat": 37.34449,
        "lon": -6.065354
      },
      {
        "id": 173,
        "name": "Mar\u00edn",
        "lat": 42.39147,
        "lon": -8.699853
      },
      {
        "id": 174,
        "name": "Castro-Urdiales",
        "lat": 43.38277,
        "lon": -3.21957
      },
      {
        "id": 175,
        "name": "San Vicente del Raspeig/Sant Vicent del Raspeig",
        "lat": 38.39609,
        "lon": -0.5249284
      },
      {
        "id": 176,
        "name": "Alhaur\u00edn de la Torre",
        "lat": 36.66836,
        "lon": -4.552967
      },
      {
        "id": 177,
        "name": "Castelldefels",
        "lat": 41.28039,
        "lon": 1.976774
      },
      {
        "id": 178,
        "name": "Vila-seca",
        "lat": 41.11095,
        "lon": 1.145001
      },
      {
        "id": 179,
        "name": "Logro\u00f1o",
        "lat": 42.46577,
        "lon": -2.449995
      },
      {
        "id": 180,
        "name": "Utrera",
        "lat": 37.18142,
        "lon": -5.781507
      },
      {
        "id": 181,
        "name": "\u00c9cija",
        "lat": 37.54093,
        "lon": -5.079953
      },
      {
        "id": 182,
        "name": "Jerez de la Frontera",
        "lat": 36.68656,
        "lon": -6.137173
      },
      {
        "id": 183,
        "name": "Majadahonda",
        "lat": 40.47283,
        "lon": -3.872304
      },
      {
        "id": 184,
        "name": "Alfafar",
        "lat": 39.42323,
        "lon": -0.3898719
      },
      {
        "id": 185,
        "name": "C\u00f3rdoba",
        "lat": 37.88473,
        "lon": -4.779152
      },
      {
        "id": 186,
        "name": "Badalona",
        "lat": 41.45014,
        "lon": 2.24742
      },
      {
        "id": 187,
        "name": "Galdakao",
        "lat": 43.23056,
        "lon": -2.845833
      },
      {
        "id": 188,
        "name": "Manresa",
        "lat": 41.72517,
        "lon": 1.823353
      },
      {
        "id": 189,
        "name": "Palma del R\u00edo",
        "lat": 37.70163,
        "lon": -5.283767
      },
      {
        "id": 190,
        "name": "Matar\u00f3",
        "lat": 41.5375,
        "lon": 2.445278
      },
      {
        "id": 191,
        "name": "Soria",
        "lat": 41.7636,
        "lon": -2.464921
      },
      {
        "id": 192,
        "name": "Totana",
        "lat": 37.77124,
        "lon": -1.501004
      },
      {
        "id": 193,
        "name": "San Andr\u00e9s del Rabanedo",
        "lat": 42.61139,
        "lon": -5.619493
      },
      {
        "id": 194,
        "name": "Cullera",
        "lat": 39.16514,
        "lon": -0.2559119
      },
      {
        "id": 195,
        "name": "Vilagarc\u00eda de Arousa",
        "lat": 42.59387,
        "lon": -8.765963
      },
      {
        "id": 196,
        "name": "Adra",
        "lat": 36.74807,
        "lon": -3.022522
      },
      {
        "id": 197,
        "name": "Tudela",
        "lat": 42.06388,
        "lon": -1.605718
      },
      {
        "id": 198,
        "name": "Montilla",
        "lat": 37.58963,
        "lon": -4.638313
      },
      {
        "id": 199,
        "name": "Linares",
        "lat": 38.09362,
        "lon": -3.635844
      },
      {
        "id": 200,
        "name": "Rinconada (La)",
        "lat": 37.4878,
        "lon": -5.979309
      },
      {
        "id": 201,
        "name": "San Javier",
        "lat": 37.80569,
        "lon": -0.8345491
      },
      {
        "id": 202,
        "name": "Masnou (El)",
        "lat": 41.47931,
        "lon": 2.319244
      },
      {
        "id": 203,
        "name": "Guadalajara",
        "lat": 40.62981,
        "lon": -3.166493
      },
      {
        "id": 204,
        "name": "Alcantarilla",
        "lat": 37.97068,
        "lon": -1.218209
      },
      {
        "id": 205,
        "name": "Tortosa",
        "lat": 40.811,
        "lon": 0.5209974
      },
      {
        "id": 206,
        "name": "Ibi",
        "lat": 38.62551,
        "lon": -0.5713521
      },
      {
        "id": 207,
        "name": "Tarragona",
        "lat": 41.11866,
        "lon": 1.24533
      },
      {
        "id": 208,
        "name": "Don Benito",
        "lat": 38.9543,
        "lon": -5.861752
      },
      {
        "id": 209,
        "name": "Torrej\u00f3n de Ardoz",
        "lat": 40.4589,
        "lon": -3.479771
      },
      {
        "id": 210,
        "name": "Laguna de Duero",
        "lat": 41.58331,
        "lon": -4.721731
      },
      {
        "id": 211,
        "name": "Madrid",
        "lat": 40.41669,
        "lon": -3.700346
      },
      {
        "id": 212,
        "name": "Caravaca de la Cruz",
        "lat": 38.10899,
        "lon": -1.866033
      },
      {
        "id": 213,
        "name": "Sabadell",
        "lat": 41.54862,
        "lon": 2.107421
      },
      {
        "id": 214,
        "name": "Vic",
        "lat": 41.93029,
        "lon": 2.25435
      },
      {
        "id": 215,
        "name": "Azuqueca de Henares",
        "lat": 40.56503,
        "lon": -3.268549
      },
      {
        "id": 216,
        "name": "C\u00e1rtama",
        "lat": 36.71131,
        "lon": -4.630741
      },
      {
        "id": 217,
        "name": "Palacios y Villafranca (Los)",
        "lat": 37.15859,
        "lon": -5.924166
      },
      {
        "id": 218,
        "name": "Sant Vicen\u00e7 dels Horts",
        "lat": 41.39362,
        "lon": 2.00987
      },
      {
        "id": 219,
        "name": "Gandia",
        "lat": 38.96902,
        "lon": -0.1851868
      },
      {
        "id": 220,
        "name": "Torrelodones",
        "lat": 40.57628,
        "lon": -3.929452
      },
      {
        "id": 221,
        "name": "Cornell\u00e0 de Llobregat",
        "lat": 41.35561,
        "lon": 2.070432
      },
      {
        "id": 222,
        "name": "Torrelavega",
        "lat": 43.35146,
        "lon": -4.047017
      },
      {
        "id": 223,
        "name": "Albacete",
        "lat": 38.99765,
        "lon": -1.86007
      },
      {
        "id": 224,
        "name": "Navalcarnero",
        "lat": 40.28781,
        "lon": -4.013766
      },
      {
        "id": 225,
        "name": "San Pedro del Pinatar",
        "lat": 37.83504,
        "lon": -0.7915859
      },
      {
        "id": 226,
        "name": "Oviedo",
        "lat": 43.36026,
        "lon": -5.844759
      },
      {
        "id": 227,
        "name": "Barcelona",
        "lat": 41.38792,
        "lon": 2.169919
      },
      {
        "id": 228,
        "name": "Baena",
        "lat": 37.61441,
        "lon": -4.326089
      },
      {
        "id": 229,
        "name": "Santurtzi",
        "lat": 43.32871,
        "lon": -3.031772
      },
      {
        "id": 230,
        "name": "Illescas",
        "lat": 40.12416,
        "lon": -3.849206
      },
      {
        "id": 231,
        "name": "Lal\u00edn",
        "lat": 42.66137,
        "lon": -8.110957
      },
      {
        "id": 232,
        "name": "Palafrugell",
        "lat": 41.91719,
        "lon": 3.163817
      },
      {
        "id": 233,
        "name": "Puertollano",
        "lat": 38.68604,
        "lon": -4.112146
      },
      {
        "id": 234,
        "name": "Oleiros",
        "lat": 43.3335,
        "lon": -8.313619
      },
      {
        "id": 235,
        "name": "Campello (el)",
        "lat": 38.42892,
        "lon": -0.3978871
      },
      {
        "id": 236,
        "name": "Barbate",
        "lat": 36.19282,
        "lon": -5.918903
      },
      {
        "id": 237,
        "name": "Algete",
        "lat": 40.59642,
        "lon": -3.497902
      },
      {
        "id": 238,
        "name": "Alcal\u00e1 de Henares",
        "lat": 40.48166,
        "lon": -3.364136
      },
      {
        "id": 239,
        "name": "San Fernando",
        "lat": 36.46572,
        "lon": -6.196626
      },
      {
        "id": 240,
        "name": "Catarroja",
        "lat": 39.40274,
        "lon": -0.4035184
      },
      {
        "id": 241,
        "name": "Gij\u00f3n",
        "lat": 43.54526,
        "lon": -5.661926
      },
      {
        "id": 242,
        "name": "Paterna",
        "lat": 39.50206,
        "lon": -0.4405986
      },
      {
        "id": 243,
        "name": "Le\u00f3n",
        "lat": 42.59988,
        "lon": -5.571752
      },
      {
        "id": 244,
        "name": "Rota",
        "lat": 36.61699,
        "lon": -6.358202
      },
      {
        "id": 245,
        "name": "Alcoy/Alcoi",
        "lat": 38.69763,
        "lon": -0.4730959
      },
      {
        "id": 246,
        "name": "Almu\u00f1\u00e9car",
        "lat": 36.73454,
        "lon": -3.690736
      },
      {
        "id": 247,
        "name": "Blanes",
        "lat": 41.67427,
        "lon": 2.792096
      },
      {
        "id": 248,
        "name": "Alcal\u00e1 la Real",
        "lat": 37.46358,
        "lon": -3.925078
      },
      {
        "id": 249,
        "name": "Terrassa",
        "lat": 41.56095,
        "lon": 2.01044
      },
      {
        "id": 250,
        "name": "Almansa",
        "lat": 38.86941,
        "lon": -1.097517
      },
      {
        "id": 251,
        "name": "Barrios (Los)",
        "lat": 36.18539,
        "lon": -5.492747
      },
      {
        "id": 252,
        "name": "\u00c1vila",
        "lat": 40.65642,
        "lon": -4.700323
      },
      {
        "id": 253,
        "name": "Sitges",
        "lat": 41.23478,
        "lon": 1.811222
      },
      {
        "id": 254,
        "name": "Manlleu",
        "lat": 41.99995,
        "lon": 2.284165
      },
      {
        "id": 255,
        "name": "Cartagena",
        "lat": 37.60565,
        "lon": -0.9912944
      },
      {
        "id": 256,
        "name": "Errenteria",
        "lat": 43.31275,
        "lon": -1.899633
      },
      {
        "id": 257,
        "name": "Langreo",
        "lat": 43.29636,
        "lon": -5.682541
      },
      {
        "id": 258,
        "name": "Bilbao",
        "lat": 43.25696,
        "lon": -2.923441
      },
      {
        "id": 259,
        "name": "Mejorada del Campo",
        "lat": 40.39701,
        "lon": -3.487864
      },
      {
        "id": 260,
        "name": "Legan\u00e9s",
        "lat": 40.32642,
        "lon": -3.758988
      },
      {
        "id": 261,
        "name": "Sant Joan d'Alacant",
        "lat": 38.39817,
        "lon": -0.4345329
      },
      {
        "id": 262,
        "name": "Sueca",
        "lat": 39.20264,
        "lon": -0.3106423
      },
      {
        "id": 263,
        "name": "Cambre",
        "lat": 43.29416,
        "lon": -8.34498
      },
      {
        "id": 264,
        "name": "Amposta",
        "lat": 40.71231,
        "lon": 0.579972
      },
      {
        "id": 265,
        "name": "B\u00e9tera",
        "lat": 39.58848,
        "lon": -0.4588638
      },
      {
        "id": 266,
        "name": "Ll\u00edria",
        "lat": 39.62458,
        "lon": -0.5947581
      },
      {
        "id": 267,
        "name": "Basauri",
        "lat": 43.23333,
        "lon": -2.883333
      },
      {
        "id": 268,
        "name": "Barber\u00e0 del Vall\u00e8s",
        "lat": 41.51596,
        "lon": 2.124723
      },
      {
        "id": 269,
        "name": "Lucena",
        "lat": 37.40873,
        "lon": -4.485598
      },
      {
        "id": 270,
        "name": "Antequera",
        "lat": 37.01938,
        "lon": -4.562885
      },
      {
        "id": 271,
        "name": "Moncada",
        "lat": 39.54554,
        "lon": -0.3934617
      },
      {
        "id": 272,
        "name": "Molins de Rei",
        "lat": 41.41392,
        "lon": 2.015836
      },
      {
        "id": 273,
        "name": "Novelda",
        "lat": 38.3853,
        "lon": -0.7653857
      },
      {
        "id": 274,
        "name": "Viladecans",
        "lat": 41.31601,
        "lon": 2.020199
      },
      {
        "id": 275,
        "name": "Valdepe\u00f1as",
        "lat": 38.76053,
        "lon": -3.384104
      },
      {
        "id": 276,
        "name": "C\u00e1ceres",
        "lat": 39.47618,
        "lon": -6.37076
      },
      {
        "id": 277,
        "name": "Cangas",
        "lat": 42.26471,
        "lon": -8.782845
      },
      {
        "id": 278,
        "name": "Torre-Pacheco",
        "lat": 37.74428,
        "lon": -0.9536195
      },
      {
        "id": 279,
        "name": "Alhaur\u00edn el Grande",
        "lat": 36.64186,
        "lon": -4.691447
      },
      {
        "id": 280,
        "name": "Roses",
        "lat": 42.26297,
        "lon": 3.174805
      },
      {
        "id": 281,
        "name": "Alicante",
        "lat": 38.3452,
        "lon": -0.481006
      },
      {
        "id": 282,
        "name": "Mor\u00f3n de la Frontera",
        "lat": 37.1223,
        "lon": -5.451869
      },
      {
        "id": 283,
        "name": "Santa Coloma de Gramenet",
        "lat": 41.45107,
        "lon": 2.208978
      },
      {
        "id": 284,
        "name": "Vinar\u00f2s",
        "lat": 40.471,
        "lon": 0.4747435
      },
      {
        "id": 285,
        "name": "Rivas-Vaciamadrid",
        "lat": 40.3297,
        "lon": -3.516941
      },
      {
        "id": 286,
        "name": "Martorell",
        "lat": 41.47355,
        "lon": 1.927682
      },
      {
        "id": 287,
        "name": "Benicarl\u00f3",
        "lat": 40.4187,
        "lon": 0.4231017
      },
      {
        "id": 288,
        "name": "Salt",
        "lat": 41.97416,
        "lon": 2.792586
      },
      {
        "id": 289,
        "name": "Vila-real",
        "lat": 39.93835,
        "lon": -0.1018287
      },
      {
        "id": 290,
        "name": "Estepona",
        "lat": 36.42477,
        "lon": -5.144903
      },
      {
        "id": 291,
        "name": "Zarautz",
        "lat": 43.28036,
        "lon": -2.171588
      },
      {
        "id": 292,
        "name": "Camargo",
        "lat": 43.40667,
        "lon": -3.883333
      },
      {
        "id": 293,
        "name": "Gav\u00e0",
        "lat": 41.30317,
        "lon": 2.003213
      },
      {
        "id": 294,
        "name": "Alcobendas",
        "lat": 40.54754,
        "lon": -3.642091
      },
      {
        "id": 295,
        "name": "Siero",
        "lat": 43.383,
        "lon": -5.65
      },
      {
        "id": 296,
        "name": "Almendralejo",
        "lat": 38.68982,
        "lon": -6.405679
      },
      {
        "id": 297,
        "name": "Lebrija",
        "lat": 36.91951,
        "lon": -6.078367
      },
      {
        "id": 298,
        "name": "Medina del Campo",
        "lat": 41.30819,
        "lon": -4.921706
      },
      {
        "id": 299,
        "name": "Castellar del Vall\u00e8s",
        "lat": 41.61618,
        "lon": 2.085649
      },
      {
        "id": 300,
        "name": "Ronda",
        "lat": 36.74196,
        "lon": -5.166412
      },
      {
        "id": 301,
        "name": "Irun",
        "lat": 43.33823,
        "lon": -1.789272
      },
      {
        "id": 302,
        "name": "D\u00e9nia",
        "lat": 38.84043,
        "lon": 0.1085751
      },
      {
        "id": 303,
        "name": "San Juan de Aznalfarache",
        "lat": 37.35838,
        "lon": -6.035451
      },
      {
        "id": 304,
        "name": "Pinto",
        "lat": 40.24454,
        "lon": -3.696013
      },
      {
        "id": 305,
        "name": "Santiago de Compostela",
        "lat": 42.88045,
        "lon": -8.546304
      },
      {
        "id": 306,
        "name": "Sant Andreu de la Barca",
        "lat": 41.44718,
        "lon": 1.975935
      },
      {
        "id": 307,
        "name": "Camas",
        "lat": 37.40087,
        "lon": -6.032911
      },
      {
        "id": 308,
        "name": "Granada",
        "lat": 37.17649,
        "lon": -3.597929
      },
      {
        "id": 309,
        "name": "Villajoyosa/Vila Joiosa (la)",
        "lat": 38.50775,
        "lon": -0.2326134
      },
      {
        "id": 310,
        "name": "Sant Boi de Llobregat",
        "lat": 41.34739,
        "lon": 2.043103
      },
      {
        "id": 311,
        "name": "Vall d'Uix\u00f3 (la)",
        "lat": 39.82333,
        "lon": -0.2325619
      },
      {
        "id": 312,
        "name": "Rojales",
        "lat": 38.08833,
        "lon": -0.7242546
      },
      {
        "id": 313,
        "name": "Redondela",
        "lat": 42.28379,
        "lon": -8.607425
      },
      {
        "id": 314,
        "name": "Girona",
        "lat": 41.9818,
        "lon": 2.8237
      },
      {
        "id": 315,
        "name": "Arrasate/Mondrag\u00f3n",
        "lat": 43.06451,
        "lon": -2.487716
      },
      {
        "id": 316,
        "name": "Barakaldo",
        "lat": 43.29683,
        "lon": -2.985259
      },
      {
        "id": 317,
        "name": "Requena",
        "lat": 39.48788,
        "lon": -1.100322
      },
      {
        "id": 318,
        "name": "Almazora/Almassora",
        "lat": 39.94497,
        "lon": -0.0633176
      },
      {
        "id": 319,
        "name": "Zaragoza",
        "lat": 41.65629,
        "lon": -0.8765379
      },
      {
        "id": 320,
        "name": "Oliva",
        "lat": 38.91939,
        "lon": -0.1226779
      },
      {
        "id": 321,
        "name": "Roquetas de Mar",
        "lat": 36.76427,
        "lon": -2.614935
      },
      {
        "id": 322,
        "name": "Hospitalet de Llobregat (L')",
        "lat": 41.35958,
        "lon": 2.099704
      },
      {
        "id": 323,
        "name": "Reus",
        "lat": 41.15482,
        "lon": 1.108676
      },
      {
        "id": 324,
        "name": "Pamplona/Iru\u00f1a",
        "lat": 42.81721,
        "lon": -1.646767
      },
      {
        "id": 325,
        "name": "M\u00e1laga",
        "lat": 36.71965,
        "lon": -4.420019
      },
      {
        "id": 326,
        "name": "Donostia-San Sebasti\u00e1n",
        "lat": 43.32074,
        "lon": -1.984421
      },
      {
        "id": 327,
        "name": "Torrent",
        "lat": 41.95246,
        "lon": 3.12839
      },
      {
        "id": 328,
        "name": "Esplugues de Llobregat",
        "lat": 41.37751,
        "lon": 2.088085
      },
      {
        "id": 329,
        "name": "Valls",
        "lat": 41.28728,
        "lon": 1.251579
      },
      {
        "id": 330,
        "name": "Alboraya",
        "lat": 39.49935,
        "lon": -0.3497834
      },
      {
        "id": 331,
        "name": "Alzira",
        "lat": 39.15159,
        "lon": -0.4404637
      },
      {
        "id": 332,
        "name": "Montcada i Reixac",
        "lat": 41.48231,
        "lon": 2.188504
      },
      {
        "id": 333,
        "name": "Martos",
        "lat": 37.72278,
        "lon": -3.966259
      },
      {
        "id": 334,
        "name": "V\u00e9lez-M\u00e1laga",
        "lat": 36.77864,
        "lon": -4.100675
      },
      {
        "id": 335,
        "name": "Cuenca",
        "lat": 40.07183,
        "lon": -2.134005
      },
      {
        "id": 336,
        "name": "San Fernando de Henares",
        "lat": 40.42553,
        "lon": -3.536694
      },
      {
        "id": 337,
        "name": "Salou",
        "lat": 41.07677,
        "lon": 1.144041
      },
      {
        "id": 338,
        "name": "Getafe",
        "lat": 40.30498,
        "lon": -3.732677
      },
      {
        "id": 339,
        "name": "Ciempozuelos",
        "lat": 40.15934,
        "lon": -3.6184
      },
      {
        "id": 340,
        "name": "Ferrol",
        "lat": 43.48839,
        "lon": -8.222509
      },
      {
        "id": 341,
        "name": "Co\u00edn",
        "lat": 36.65871,
        "lon": -4.760344
      },
      {
        "id": 342,
        "name": "Pilar de la Horadada",
        "lat": 37.86538,
        "lon": -0.7925081
      },
      {
        "id": 343,
        "name": "Calpe/Calp",
        "lat": 38.64483,
        "lon": 0.0454063
      },
      {
        "id": 344,
        "name": "Olot",
        "lat": 42.18211,
        "lon": 2.488189
      },
      {
        "id": 345,
        "name": "Benidorm",
        "lat": 38.53704,
        "lon": -0.1290771
      },
      {
        "id": 346,
        "name": "Borriana/Burriana",
        "lat": 39.88987,
        "lon": -0.0836936
      },
      {
        "id": 347,
        "name": "Ribeira",
        "lat": 42.57627,
        "lon": -9.023945
      },
      {
        "id": 348,
        "name": "Puente Genil",
        "lat": 37.39051,
        "lon": -4.770465
      },
      {
        "id": 349,
        "name": "Lepe",
        "lat": 37.25432,
        "lon": -7.203348
      },
      {
        "id": 350,
        "name": "Isla Cristina",
        "lat": 37.19943,
        "lon": -7.325246
      },
      {
        "id": 351,
        "name": "Ayamonte",
        "lat": 37.21466,
        "lon": -7.409819
      },
      {
        "id": 352,
        "name": "San Roque",
        "lat": 36.20975,
        "lon": -5.384572
      },
      {
        "id": 353,
        "name": "Guadix",
        "lat": 37.3004,
        "lon": -3.134583
      }
    ],
    "roads": [
      {
        "origin": 0,
        "destination": 59,
        "distance": 25.33
      },
      {
        "origin": 0,
        "destination": 140,
        "distance": 10.37
      },
      {
        "origin": 0,
        "destination": 190,
        "distance": 20.17
      },
      {
        "origin": 0,
        "destination": 214,
        "distance": 41.68
      },
      {
        "origin": 1,
        "destination": 78,
        "distance": 48.5
      },
      {
        "origin": 1,
        "destination": 99,
        "distance": 100.84
      },
      {
        "origin": 1,
        "destination": 130,
        "distance": 119.55
      },
      {
        "origin": 1,
        "destination": 210,
        "distance": 9.38
      },
      {
        "origin": 1,
        "destination": 298,
        "distance": 56.01
      },
      {
        "origin": 2,
        "destination": 9,
        "distance": 23.18
      },
      {
        "origin": 2,
        "destination": 128,
        "distance": 32.81
      },
      {
        "origin": 2,
        "destination": 247,
        "distance": 6.94
      },
      {
        "origin": 2,
        "destination": 288,
        "distance": 38.31
      },
      {
        "origin": 2,
        "destination": 314,
        "distance": 39.62
      },
      {
        "origin": 3,
        "destination": 25,
        "distance": 136.62
      },
      {
        "origin": 3,
        "destination": 75,
        "distance": 89.2
      },
      {
        "origin": 3,
        "destination": 94,
        "distance": 157.79
      },
      {
        "origin": 3,
        "destination": 179,
        "distance": 53.61
      },
      {
        "origin": 3,
        "destination": 191,
        "distance": 118.04
      },
      {
        "origin": 3,
        "destination": 197,
        "distance": 51.97
      },
      {
        "origin": 3,
        "destination": 324,
        "distance": 86.49
      },
      {
        "origin": 4,
        "destination": 54,
        "distance": 22.02
      },
      {
        "origin": 4,
        "destination": 65,
        "distance": 35.75
      },
      {
        "origin": 4,
        "destination": 82,
        "distance": 20.24
      },
      {
        "origin": 4,
        "destination": 86,
        "distance": 21.16
      },
      {
        "origin": 4,
        "destination": 131,
        "distance": 17.94
      },
      {
        "origin": 4,
        "destination": 253,
        "distance": 24.62
      },
      {
        "origin": 5,
        "destination": 208,
        "distance": 55.59
      },
      {
        "origin": 5,
        "destination": 276,
        "distance": 77.84
      },
      {
        "origin": 5,
        "destination": 296,
        "distance": 30.87
      },
      {
        "origin": 6,
        "destination": 14,
        "distance": 6.14
      },
      {
        "origin": 6,
        "destination": 226,
        "distance": 40.75
      },
      {
        "origin": 6,
        "destination": 241,
        "distance": 34.33
      },
      {
        "origin": 6,
        "destination": 257,
        "distance": 52.37
      },
      {
        "origin": 6,
        "destination": 295,
        "distance": 47.61
      },
      {
        "origin": 7,
        "destination": 19,
        "distance": 7.71
      },
      {
        "origin": 7,
        "destination": 21,
        "distance": 63.54
      },
      {
        "origin": 7,
        "destination": 101,
        "distance": 68.9
      },
      {
        "origin": 7,
        "destination": 220,
        "distance": 8.2
      },
      {
        "origin": 8,
        "destination": 105,
        "distance": 7.39
      },
      {
        "origin": 8,
        "destination": 123,
        "distance": 8.87
      },
      {
        "origin": 8,
        "destination": 140,
        "distance": 4.58
      },
      {
        "origin": 8,
        "destination": 213,
        "distance": 7.57
      },
      {
        "origin": 8,
        "destination": 268,
        "distance": 6.65
      },
      {
        "origin": 8,
        "destination": 332,
        "distance": 9.59
      },
      {
        "origin": 9,
        "destination": 2,
        "distance": 23.18
      },
      {
        "origin": 9,
        "destination": 59,
        "distance": 36.72
      },
      {
        "origin": 9,
        "destination": 190,
        "distance": 26.94
      },
      {
        "origin": 9,
        "destination": 247,
        "distance": 12.07
      },
      {
        "origin": 10,
        "destination": 69,
        "distance": 42.79
      },
      {
        "origin": 10,
        "destination": 88,
        "distance": 35.0
      },
      {
        "origin": 10,
        "destination": 93,
        "distance": 26.32
      },
      {
        "origin": 10,
        "destination": 139,
        "distance": 25.65
      },
      {
        "origin": 10,
        "destination": 204,
        "distance": 42.08
      },
      {
        "origin": 10,
        "destination": 312,
        "distance": 21.18
      },
      {
        "origin": 10,
        "destination": 342,
        "distance": 33.54
      },
      {
        "origin": 11,
        "destination": 40,
        "distance": 27.51
      },
      {
        "origin": 11,
        "destination": 97,
        "distance": 8.31
      },
      {
        "origin": 11,
        "destination": 129,
        "distance": 19.91
      },
      {
        "origin": 11,
        "destination": 183,
        "distance": 12.29
      },
      {
        "origin": 12,
        "destination": 18,
        "distance": 11.09
      },
      {
        "origin": 12,
        "destination": 22,
        "distance": 17.79
      },
      {
        "origin": 12,
        "destination": 155,
        "distance": 19.2
      },
      {
        "origin": 12,
        "destination": 180,
        "distance": 22.04
      },
      {
        "origin": 12,
        "destination": 217,
        "distance": 15.67
      },
      {
        "origin": 13,
        "destination": 15,
        "distance": 6.59
      },
      {
        "origin": 13,
        "destination": 45,
        "distance": 4.51
      },
      {
        "origin": 13,
        "destination": 113,
        "distance": 6.32
      },
      {
        "origin": 13,
        "destination": 134,
        "distance": 4.56
      },
      {
        "origin": 13,
        "destination": 229,
        "distance": 6.21
      },
      {
        "origin": 13,
        "destination": 316,
        "distance": 6.92
      },
      {
        "origin": 14,
        "destination": 6,
        "distance": 6.14
      },
      {
        "origin": 14,
        "destination": 161,
        "distance": 51.33
      },
      {
        "origin": 14,
        "destination": 226,
        "distance": 33.97
      },
      {
        "origin": 14,
        "destination": 241,
        "distance": 27.55
      },
      {
        "origin": 14,
        "destination": 257,
        "distance": 45.59
      },
      {
        "origin": 14,
        "destination": 295,
        "distance": 40.83
      },
      {
        "origin": 15,
        "destination": 13,
        "distance": 6.59
      },
      {
        "origin": 15,
        "destination": 45,
        "distance": 1.85
      },
      {
        "origin": 15,
        "destination": 113,
        "distance": 10.05
      },
      {
        "origin": 15,
        "destination": 134,
        "distance": 10.32
      },
      {
        "origin": 15,
        "destination": 229,
        "distance": 4.06
      },
      {
        "origin": 15,
        "destination": 316,
        "distance": 4.52
      },
      {
        "origin": 16,
        "destination": 25,
        "distance": 68.99
      },
      {
        "origin": 16,
        "destination": 76,
        "distance": 16.72
      },
      {
        "origin": 16,
        "destination": 187,
        "distance": 23.39
      },
      {
        "origin": 16,
        "destination": 258,
        "distance": 31.47
      },
      {
        "origin": 16,
        "destination": 267,
        "distance": 24.71
      },
      {
        "origin": 16,
        "destination": 315,
        "distance": 25.22
      },
      {
        "origin": 17,
        "destination": 72,
        "distance": 63.18
      },
      {
        "origin": 17,
        "destination": 115,
        "distance": 70.13
      },
      {
        "origin": 17,
        "destination": 248,
        "distance": 69.19
      },
      {
        "origin": 17,
        "destination": 334,
        "distance": 64.79
      },
      {
        "origin": 18,
        "destination": 12,
        "distance": 11.09
      },
      {
        "origin": 18,
        "destination": 119,
        "distance": 10.27
      },
      {
        "origin": 18,
        "destination": 124,
        "distance": 34.56
      },
      {
        "origin": 18,
        "destination": 180,
        "distance": 24.27
      },
      {
        "origin": 18,
        "destination": 217,
        "distance": 26.66
      },
      {
        "origin": 18,
        "destination": 282,
        "distance": 48.85
      },
      {
        "origin": 19,
        "destination": 7,
        "distance": 7.71
      },
      {
        "origin": 19,
        "destination": 21,
        "distance": 55.55
      },
      {
        "origin": 19,
        "destination": 101,
        "distance": 102.16
      },
      {
        "origin": 19,
        "destination": 220,
        "distance": 11.58
      },
      {
        "origin": 19,
        "destination": 252,
        "distance": 77.68
      },
      {
        "origin": 20,
        "destination": 81,
        "distance": 49.16
      },
      {
        "origin": 20,
        "destination": 126,
        "distance": 39.95
      },
      {
        "origin": 20,
        "destination": 192,
        "distance": 29.84
      },
      {
        "origin": 20,
        "destination": 204,
        "distance": 55.88
      },
      {
        "origin": 20,
        "destination": 255,
        "distance": 39.15
      },
      {
        "origin": 20,
        "destination": 278,
        "distance": 51.74
      },
      {
        "origin": 21,
        "destination": 7,
        "distance": 63.54
      },
      {
        "origin": 21,
        "destination": 19,
        "distance": 55.55
      },
      {
        "origin": 21,
        "destination": 78,
        "distance": 160.82
      },
      {
        "origin": 21,
        "destination": 117,
        "distance": 117.31
      },
      {
        "origin": 21,
        "destination": 210,
        "distance": 109.19
      },
      {
        "origin": 21,
        "destination": 252,
        "distance": 88.13
      },
      {
        "origin": 22,
        "destination": 12,
        "distance": 17.79
      },
      {
        "origin": 22,
        "destination": 104,
        "distance": 11.94
      },
      {
        "origin": 22,
        "destination": 155,
        "distance": 14.82
      },
      {
        "origin": 22,
        "destination": 172,
        "distance": 9.55
      },
      {
        "origin": 22,
        "destination": 180,
        "distance": 41.61
      },
      {
        "origin": 22,
        "destination": 217,
        "distance": 29.22
      },
      {
        "origin": 22,
        "destination": 303,
        "distance": 10.31
      },
      {
        "origin": 22,
        "destination": 307,
        "distance": 17.5
      },
      {
        "origin": 23,
        "destination": 28,
        "distance": 24.1
      },
      {
        "origin": 23,
        "destination": 30,
        "distance": 210.46
      },
      {
        "origin": 23,
        "destination": 95,
        "distance": 50.41
      },
      {
        "origin": 23,
        "destination": 136,
        "distance": 39.84
      },
      {
        "origin": 23,
        "destination": 182,
        "distance": 24.9
      },
      {
        "origin": 23,
        "destination": 244,
        "distance": 22.39
      },
      {
        "origin": 23,
        "destination": 297,
        "distance": 36.15
      },
      {
        "origin": 23,
        "destination": 351,
        "distance": 257.84
      },
      {
        "origin": 24,
        "destination": 83,
        "distance": 116.17
      },
      {
        "origin": 24,
        "destination": 193,
        "distance": 110.29
      },
      {
        "origin": 24,
        "destination": 243,
        "distance": 115.96
      },
      {
        "origin": 25,
        "destination": 3,
        "distance": 136.62
      },
      {
        "origin": 25,
        "destination": 16,
        "distance": 68.99
      },
      {
        "origin": 25,
        "destination": 76,
        "distance": 54.38
      },
      {
        "origin": 25,
        "destination": 138,
        "distance": 34.57
      },
      {
        "origin": 25,
        "destination": 179,
        "distance": 91.45
      },
      {
        "origin": 25,
        "destination": 315,
        "distance": 38.66
      },
      {
        "origin": 26,
        "destination": 319,
        "distance": 73.62
      },
      {
        "origin": 27,
        "destination": 144,
        "distance": 53.02
      },
      {
        "origin": 27,
        "destination": 169,
        "distance": 41.06
      },
      {
        "origin": 27,
        "destination": 219,
        "distance": 40.22
      },
      {
        "origin": 27,
        "destination": 302,
        "distance": 12.21
      },
      {
        "origin": 27,
        "destination": 320,
        "distance": 28.6
      },
      {
        "origin": 27,
        "destination": 343,
        "distance": 28.56
      },
      {
        "origin": 28,
        "destination": 23,
        "distance": 24.1
      },
      {
        "origin": 28,
        "destination": 70,
        "distance": 52.62
      },
      {
        "origin": 28,
        "destination": 95,
        "distance": 19.08
      },
      {
        "origin": 28,
        "destination": 109,
        "distance": 29.33
      },
      {
        "origin": 28,
        "destination": 136,
        "distance": 10.25
      },
      {
        "origin": 28,
        "destination": 182,
        "distance": 14.6
      },
      {
        "origin": 28,
        "destination": 239,
        "distance": 27.65
      },
      {
        "origin": 28,
        "destination": 244,
        "distance": 23.03
      },
      {
        "origin": 29,
        "destination": 73,
        "distance": 180.66
      },
      {
        "origin": 29,
        "destination": 90,
        "distance": 31.94
      },
      {
        "origin": 29,
        "destination": 92,
        "distance": 48.26
      },
      {
        "origin": 29,
        "destination": 222,
        "distance": 20.63
      },
      {
        "origin": 29,
        "destination": 292,
        "distance": 43.18
      },
      {
        "origin": 30,
        "destination": 23,
        "distance": 210.46
      },
      {
        "origin": 30,
        "destination": 68,
        "distance": 52.22
      },
      {
        "origin": 30,
        "destination": 244,
        "distance": 215.44
      },
      {
        "origin": 30,
        "destination": 349,
        "distance": 33.12
      },
      {
        "origin": 30,
        "destination": 350,
        "distance": 49.79
      },
      {
        "origin": 30,
        "destination": 351,
        "distance": 54.71
      },
      {
        "origin": 31,
        "destination": 111,
        "distance": 10.19
      },
      {
        "origin": 31,
        "destination": 142,
        "distance": 11.01
      },
      {
        "origin": 31,
        "destination": 170,
        "distance": 10.52
      },
      {
        "origin": 31,
        "destination": 176,
        "distance": 17.58
      },
      {
        "origin": 31,
        "destination": 279,
        "distance": 19.36
      },
      {
        "origin": 32,
        "destination": 61,
        "distance": 189.37
      },
      {
        "origin": 32,
        "destination": 135,
        "distance": 173.1
      },
      {
        "origin": 32,
        "destination": 321,
        "distance": 172.38
      },
      {
        "origin": 32,
        "destination": 353,
        "distance": 46.32
      },
      {
        "origin": 33,
        "destination": 40,
        "distance": 11.02
      },
      {
        "origin": 33,
        "destination": 117,
        "distance": 136.79
      },
      {
        "origin": 33,
        "destination": 294,
        "distance": 22.5
      },
      {
        "origin": 34,
        "destination": 80,
        "distance": 8.72
      },
      {
        "origin": 34,
        "destination": 123,
        "distance": 7.5
      },
      {
        "origin": 34,
        "destination": 213,
        "distance": 13.45
      },
      {
        "origin": 34,
        "destination": 268,
        "distance": 15.18
      },
      {
        "origin": 35,
        "destination": 74,
        "distance": 2.2
      },
      {
        "origin": 35,
        "destination": 218,
        "distance": 5.11
      },
      {
        "origin": 35,
        "destination": 272,
        "distance": 4.63
      },
      {
        "origin": 35,
        "destination": 310,
        "distance": 6.2
      },
      {
        "origin": 35,
        "destination": 328,
        "distance": 3.81
      },
      {
        "origin": 36,
        "destination": 153,
        "distance": 35.49
      },
      {
        "origin": 36,
        "destination": 165,
        "distance": 22.29
      },
      {
        "origin": 36,
        "destination": 230,
        "distance": 45.26
      },
      {
        "origin": 36,
        "destination": 304,
        "distance": 28.88
      },
      {
        "origin": 36,
        "destination": 339,
        "distance": 21.59
      },
      {
        "origin": 37,
        "destination": 44,
        "distance": 18.61
      },
      {
        "origin": 37,
        "destination": 98,
        "distance": 18.68
      },
      {
        "origin": 37,
        "destination": 122,
        "distance": 13.75
      },
      {
        "origin": 37,
        "destination": 139,
        "distance": 14.27
      },
      {
        "origin": 37,
        "destination": 175,
        "distance": 31.49
      },
      {
        "origin": 37,
        "destination": 273,
        "distance": 5.52
      },
      {
        "origin": 38,
        "destination": 110,
        "distance": 73.55
      },
      {
        "origin": 38,
        "destination": 147,
        "distance": 11.05
      },
      {
        "origin": 38,
        "destination": 248,
        "distance": 48.52
      },
      {
        "origin": 38,
        "destination": 308,
        "distance": 8.86
      },
      {
        "origin": 38,
        "destination": 353,
        "distance": 61.48
      },
      {
        "origin": 39,
        "destination": 208,
        "distance": 6.99
      },
      {
        "origin": 40,
        "destination": 11,
        "distance": 27.51
      },
      {
        "origin": 40,
        "destination": 33,
        "distance": 11.02
      },
      {
        "origin": 40,
        "destination": 50,
        "distance": 15.17
      },
      {
        "origin": 40,
        "destination": 183,
        "distance": 30.75
      },
      {
        "origin": 40,
        "destination": 211,
        "distance": 23.33
      },
      {
        "origin": 40,
        "destination": 294,
        "distance": 12.95
      },
      {
        "origin": 41,
        "destination": 121,
        "distance": 6.72
      },
      {
        "origin": 41,
        "destination": 162,
        "distance": 153.79
      },
      {
        "origin": 41,
        "destination": 266,
        "distance": 14.3
      },
      {
        "origin": 42,
        "destination": 55,
        "distance": 3.34
      },
      {
        "origin": 42,
        "destination": 56,
        "distance": 5.02
      },
      {
        "origin": 42,
        "destination": 64,
        "distance": 6.23
      },
      {
        "origin": 42,
        "destination": 112,
        "distance": 3.3
      },
      {
        "origin": 42,
        "destination": 141,
        "distance": 4.41
      },
      {
        "origin": 42,
        "destination": 240,
        "distance": 10.63
      },
      {
        "origin": 42,
        "destination": 242,
        "distance": 5.29
      },
      {
        "origin": 43,
        "destination": 201,
        "distance": 27.86
      },
      {
        "origin": 43,
        "destination": 312,
        "distance": 15.04
      },
      {
        "origin": 43,
        "destination": 342,
        "distance": 19.95
      },
      {
        "origin": 44,
        "destination": 37,
        "distance": 18.61
      },
      {
        "origin": 44,
        "destination": 48,
        "distance": 22.59
      },
      {
        "origin": 44,
        "destination": 98,
        "distance": 1.87
      },
      {
        "origin": 44,
        "destination": 122,
        "distance": 34.33
      },
      {
        "origin": 44,
        "destination": 139,
        "distance": 39.99
      },
      {
        "origin": 44,
        "destination": 273,
        "distance": 11.36
      },
      {
        "origin": 45,
        "destination": 13,
        "distance": 4.51
      },
      {
        "origin": 45,
        "destination": 15,
        "distance": 1.85
      },
      {
        "origin": 45,
        "destination": 113,
        "distance": 8.26
      },
      {
        "origin": 45,
        "destination": 134,
        "distance": 8.95
      },
      {
        "origin": 45,
        "destination": 229,
        "distance": 2.21
      },
      {
        "origin": 45,
        "destination": 316,
        "distance": 6.93
      },
      {
        "origin": 46,
        "destination": 106,
        "distance": 26.21
      },
      {
        "origin": 46,
        "destination": 158,
        "distance": 18.33
      },
      {
        "origin": 46,
        "destination": 245,
        "distance": 52.08
      },
      {
        "origin": 46,
        "destination": 331,
        "distance": 27.98
      },
      {
        "origin": 47,
        "destination": 53,
        "distance": 40.33
      },
      {
        "origin": 47,
        "destination": 61,
        "distance": 74.33
      },
      {
        "origin": 47,
        "destination": 135,
        "distance": 58.06
      },
      {
        "origin": 47,
        "destination": 321,
        "distance": 57.35
      },
      {
        "origin": 48,
        "destination": 44,
        "distance": 22.59
      },
      {
        "origin": 48,
        "destination": 98,
        "distance": 22.45
      },
      {
        "origin": 48,
        "destination": 163,
        "distance": 22.85
      },
      {
        "origin": 48,
        "destination": 273,
        "distance": 32.73
      },
      {
        "origin": 49,
        "destination": 209,
        "distance": 10.88
      },
      {
        "origin": 49,
        "destination": 237,
        "distance": 30.78
      },
      {
        "origin": 49,
        "destination": 259,
        "distance": 10.92
      },
      {
        "origin": 49,
        "destination": 285,
        "distance": 22.4
      },
      {
        "origin": 49,
        "destination": 294,
        "distance": 19.57
      },
      {
        "origin": 49,
        "destination": 336,
        "distance": 2.87
      },
      {
        "origin": 50,
        "destination": 40,
        "distance": 15.17
      },
      {
        "origin": 50,
        "destination": 237,
        "distance": 14.0
      },
      {
        "origin": 50,
        "destination": 294,
        "distance": 1.85
      },
      {
        "origin": 51,
        "destination": 175,
        "distance": 12.67
      },
      {
        "origin": 51,
        "destination": 235,
        "distance": 6.95
      },
      {
        "origin": 51,
        "destination": 245,
        "distance": 47.44
      },
      {
        "origin": 51,
        "destination": 261,
        "distance": 2.85
      },
      {
        "origin": 51,
        "destination": 281,
        "distance": 10.74
      },
      {
        "origin": 52,
        "destination": 62,
        "distance": 28.67
      },
      {
        "origin": 52,
        "destination": 149,
        "distance": 41.67
      },
      {
        "origin": 52,
        "destination": 156,
        "distance": 47.63
      },
      {
        "origin": 52,
        "destination": 173,
        "distance": 7.64
      },
      {
        "origin": 52,
        "destination": 195,
        "distance": 32.79
      },
      {
        "origin": 52,
        "destination": 277,
        "distance": 36.03
      },
      {
        "origin": 52,
        "destination": 313,
        "distance": 22.63
      },
      {
        "origin": 53,
        "destination": 47,
        "distance": 40.33
      },
      {
        "origin": 53,
        "destination": 61,
        "distance": 38.23
      },
      {
        "origin": 53,
        "destination": 135,
        "distance": 21.96
      },
      {
        "origin": 53,
        "destination": 321,
        "distance": 21.25
      },
      {
        "origin": 54,
        "destination": 4,
        "distance": 22.02
      },
      {
        "origin": 54,
        "destination": 82,
        "distance": 16.24
      },
      {
        "origin": 54,
        "destination": 86,
        "distance": 6.18
      },
      {
        "origin": 55,
        "destination": 42,
        "distance": 3.34
      },
      {
        "origin": 55,
        "destination": 56,
        "distance": 1.49
      },
      {
        "origin": 55,
        "destination": 64,
        "distance": 7.27
      },
      {
        "origin": 55,
        "destination": 108,
        "distance": 6.11
      },
      {
        "origin": 55,
        "destination": 112,
        "distance": 3.48
      },
      {
        "origin": 55,
        "destination": 137,
        "distance": 3.03
      },
      {
        "origin": 55,
        "destination": 242,
        "distance": 3.66
      },
      {
        "origin": 55,
        "destination": 266,
        "distance": 27.14
      },
      {
        "origin": 56,
        "destination": 42,
        "distance": 5.02
      },
      {
        "origin": 56,
        "destination": 55,
        "distance": 1.49
      },
      {
        "origin": 56,
        "destination": 108,
        "distance": 7.86
      },
      {
        "origin": 56,
        "destination": 112,
        "distance": 5.23
      },
      {
        "origin": 56,
        "destination": 121,
        "distance": 20.63
      },
      {
        "origin": 56,
        "destination": 137,
        "distance": 4.45
      },
      {
        "origin": 56,
        "destination": 242,
        "distance": 2.21
      },
      {
        "origin": 56,
        "destination": 266,
        "distance": 26.52
      },
      {
        "origin": 57,
        "destination": 102,
        "distance": 5.35
      },
      {
        "origin": 57,
        "destination": 129,
        "distance": 6.15
      },
      {
        "origin": 57,
        "destination": 224,
        "distance": 16.83
      },
      {
        "origin": 58,
        "destination": 118,
        "distance": 4.65
      },
      {
        "origin": 58,
        "destination": 188,
        "distance": 26.23
      },
      {
        "origin": 58,
        "destination": 249,
        "distance": 16.21
      },
      {
        "origin": 58,
        "destination": 286,
        "distance": 11.89
      },
      {
        "origin": 59,
        "destination": 0,
        "distance": 25.33
      },
      {
        "origin": 59,
        "destination": 9,
        "distance": 36.72
      },
      {
        "origin": 59,
        "destination": 171,
        "distance": 19.11
      },
      {
        "origin": 59,
        "destination": 186,
        "distance": 16.02
      },
      {
        "origin": 59,
        "destination": 190,
        "distance": 10.7
      },
      {
        "origin": 59,
        "destination": 202,
        "distance": 3.79
      },
      {
        "origin": 60,
        "destination": 110,
        "distance": 40.74
      },
      {
        "origin": 60,
        "destination": 246,
        "distance": 23.57
      },
      {
        "origin": 60,
        "destination": 334,
        "distance": 26.0
      },
      {
        "origin": 61,
        "destination": 32,
        "distance": 189.37
      },
      {
        "origin": 61,
        "destination": 47,
        "distance": 74.33
      },
      {
        "origin": 61,
        "destination": 53,
        "distance": 38.23
      },
      {
        "origin": 61,
        "destination": 135,
        "distance": 18.32
      },
      {
        "origin": 61,
        "destination": 196,
        "distance": 20.98
      },
      {
        "origin": 61,
        "destination": 321,
        "distance": 20.54
      },
      {
        "origin": 61,
        "destination": 353,
        "distance": 138.39
      },
      {
        "origin": 62,
        "destination": 52,
        "distance": 28.67
      },
      {
        "origin": 62,
        "destination": 173,
        "distance": 25.49
      },
      {
        "origin": 62,
        "destination": 277,
        "distance": 26.4
      },
      {
        "origin": 62,
        "destination": 313,
        "distance": 13.43
      },
      {
        "origin": 63,
        "destination": 71,
        "distance": 33.98
      },
      {
        "origin": 63,
        "destination": 150,
        "distance": 91.22
      },
      {
        "origin": 63,
        "destination": 152,
        "distance": 44.28
      },
      {
        "origin": 63,
        "destination": 275,
        "distance": 69.29
      },
      {
        "origin": 64,
        "destination": 42,
        "distance": 6.23
      },
      {
        "origin": 64,
        "destination": 55,
        "distance": 7.27
      },
      {
        "origin": 64,
        "destination": 242,
        "distance": 3.63
      },
      {
        "origin": 64,
        "destination": 271,
        "distance": 5.74
      },
      {
        "origin": 65,
        "destination": 4,
        "distance": 35.75
      },
      {
        "origin": 65,
        "destination": 118,
        "distance": 30.92
      },
      {
        "origin": 65,
        "destination": 188,
        "distance": 31.35
      },
      {
        "origin": 66,
        "destination": 120,
        "distance": 53.04
      },
      {
        "origin": 66,
        "destination": 151,
        "distance": 24.98
      },
      {
        "origin": 66,
        "destination": 289,
        "distance": 9.26
      },
      {
        "origin": 66,
        "destination": 311,
        "distance": 37.42
      },
      {
        "origin": 66,
        "destination": 318,
        "distance": 5.83
      },
      {
        "origin": 66,
        "destination": 346,
        "distance": 12.61
      },
      {
        "origin": 67,
        "destination": 89,
        "distance": 41.05
      },
      {
        "origin": 67,
        "destination": 132,
        "distance": 24.34
      },
      {
        "origin": 67,
        "destination": 305,
        "distance": 45.5
      },
      {
        "origin": 68,
        "destination": 30,
        "distance": 52.22
      },
      {
        "origin": 68,
        "destination": 351,
        "distance": 97.48
      },
      {
        "origin": 69,
        "destination": 10,
        "distance": 42.79
      },
      {
        "origin": 69,
        "destination": 81,
        "distance": 64.79
      },
      {
        "origin": 69,
        "destination": 88,
        "distance": 5.9
      },
      {
        "origin": 69,
        "destination": 93,
        "distance": 15.14
      },
      {
        "origin": 69,
        "destination": 159,
        "distance": 62.15
      },
      {
        "origin": 69,
        "destination": 192,
        "distance": 45.46
      },
      {
        "origin": 69,
        "destination": 204,
        "distance": 7.81
      },
      {
        "origin": 69,
        "destination": 278,
        "distance": 50.05
      },
      {
        "origin": 70,
        "destination": 28,
        "distance": 52.62
      },
      {
        "origin": 70,
        "destination": 95,
        "distance": 54.02
      },
      {
        "origin": 70,
        "destination": 109,
        "distance": 24.81
      },
      {
        "origin": 70,
        "destination": 136,
        "distance": 41.56
      },
      {
        "origin": 70,
        "destination": 236,
        "distance": 25.16
      },
      {
        "origin": 70,
        "destination": 239,
        "distance": 34.25
      },
      {
        "origin": 71,
        "destination": 63,
        "distance": 33.98
      },
      {
        "origin": 71,
        "destination": 150,
        "distance": 98.41
      },
      {
        "origin": 71,
        "destination": 152,
        "distance": 72.52
      },
      {
        "origin": 71,
        "destination": 275,
        "distance": 97.3
      },
      {
        "origin": 72,
        "destination": 17,
        "distance": 63.18
      },
      {
        "origin": 72,
        "destination": 228,
        "distance": 32.84
      },
      {
        "origin": 72,
        "destination": 248,
        "distance": 27.57
      },
      {
        "origin": 72,
        "destination": 269,
        "distance": 35.46
      },
      {
        "origin": 72,
        "destination": 333,
        "distance": 45.58
      },
      {
        "origin": 73,
        "destination": 29,
        "distance": 180.66
      },
      {
        "origin": 73,
        "destination": 78,
        "distance": 90.31
      },
      {
        "origin": 73,
        "destination": 90,
        "distance": 203.1
      },
      {
        "origin": 73,
        "destination": 117,
        "distance": 83.76
      },
      {
        "origin": 73,
        "destination": 138,
        "distance": 81.31
      },
      {
        "origin": 73,
        "destination": 222,
        "distance": 191.79
      },
      {
        "origin": 74,
        "destination": 35,
        "distance": 2.2
      },
      {
        "origin": 74,
        "destination": 218,
        "distance": 7.7
      },
      {
        "origin": 74,
        "destination": 221,
        "distance": 1.96
      },
      {
        "origin": 74,
        "destination": 272,
        "distance": 8.89
      },
      {
        "origin": 74,
        "destination": 274,
        "distance": 11.17
      },
      {
        "origin": 74,
        "destination": 293,
        "distance": 12.84
      },
      {
        "origin": 74,
        "destination": 310,
        "distance": 4.79
      },
      {
        "origin": 74,
        "destination": 328,
        "distance": 4.72
      },
      {
        "origin": 75,
        "destination": 3,
        "distance": 89.2
      },
      {
        "origin": 75,
        "destination": 324,
        "distance": 5.0
      },
      {
        "origin": 76,
        "destination": 16,
        "distance": 16.72
      },
      {
        "origin": 76,
        "destination": 25,
        "distance": 54.38
      },
      {
        "origin": 76,
        "destination": 179,
        "distance": 143.15
      },
      {
        "origin": 76,
        "destination": 187,
        "distance": 36.8
      },
      {
        "origin": 76,
        "destination": 291,
        "distance": 38.38
      },
      {
        "origin": 76,
        "destination": 315,
        "distance": 22.49
      },
      {
        "origin": 76,
        "destination": 326,
        "distance": 54.75
      },
      {
        "origin": 77,
        "destination": 84,
        "distance": 8.05
      },
      {
        "origin": 77,
        "destination": 132,
        "distance": 15.36
      },
      {
        "origin": 77,
        "destination": 166,
        "distance": 54.64
      },
      {
        "origin": 77,
        "destination": 234,
        "distance": 13.24
      },
      {
        "origin": 77,
        "destination": 263,
        "distance": 14.52
      },
      {
        "origin": 77,
        "destination": 340,
        "distance": 54.27
      },
      {
        "origin": 78,
        "destination": 1,
        "distance": 48.5
      },
      {
        "origin": 78,
        "destination": 21,
        "distance": 160.82
      },
      {
        "origin": 78,
        "destination": 73,
        "distance": 90.31
      },
      {
        "origin": 78,
        "destination": 117,
        "distance": 89.1
      },
      {
        "origin": 78,
        "destination": 210,
        "distance": 56.98
      },
      {
        "origin": 78,
        "destination": 298,
        "distance": 100.86
      },
      {
        "origin": 79,
        "destination": 125,
        "distance": 76.13
      },
      {
        "origin": 79,
        "destination": 290,
        "distance": 25.9
      },
      {
        "origin": 79,
        "destination": 300,
        "distance": 60.53
      },
      {
        "origin": 79,
        "destination": 341,
        "distance": 26.87
      },
      {
        "origin": 80,
        "destination": 34,
        "distance": 8.72
      },
      {
        "origin": 80,
        "destination": 213,
        "distance": 10.55
      },
      {
        "origin": 80,
        "destination": 249,
        "distance": 9.38
      },
      {
        "origin": 80,
        "destination": 268,
        "distance": 16.57
      },
      {
        "origin": 80,
        "destination": 272,
        "distance": 12.86
      },
      {
        "origin": 80,
        "destination": 306,
        "distance": 13.11
      },
      {
        "origin": 81,
        "destination": 20,
        "distance": 49.16
      },
      {
        "origin": 81,
        "destination": 69,
        "distance": 64.79
      },
      {
        "origin": 81,
        "destination": 126,
        "distance": 36.26
      },
      {
        "origin": 81,
        "destination": 192,
        "distance": 22.57
      },
      {
        "origin": 81,
        "destination": 204,
        "distance": 60.38
      },
      {
        "origin": 81,
        "destination": 212,
        "distance": 60.25
      },
      {
        "origin": 82,
        "destination": 4,
        "distance": 20.24
      },
      {
        "origin": 82,
        "destination": 54,
        "distance": 16.24
      },
      {
        "origin": 82,
        "destination": 86,
        "distance": 21.68
      },
      {
        "origin": 82,
        "destination": 131,
        "distance": 6.92
      },
      {
        "origin": 82,
        "destination": 253,
        "distance": 11.18
      },
      {
        "origin": 83,
        "destination": 24,
        "distance": 116.17
      },
      {
        "origin": 83,
        "destination": 231,
        "distance": 70.95
      },
      {
        "origin": 84,
        "destination": 77,
        "distance": 8.05
      },
      {
        "origin": 84,
        "destination": 132,
        "distance": 17.59
      },
      {
        "origin": 84,
        "destination": 166,
        "distance": 49.2
      },
      {
        "origin": 84,
        "destination": 234,
        "distance": 8.99
      },
      {
        "origin": 84,
        "destination": 263,
        "distance": 7.71
      },
      {
        "origin": 84,
        "destination": 340,
        "distance": 48.83
      },
      {
        "origin": 85,
        "destination": 125,
        "distance": 21.71
      },
      {
        "origin": 85,
        "destination": 236,
        "distance": 76.28
      },
      {
        "origin": 85,
        "destination": 251,
        "distance": 10.51
      },
      {
        "origin": 85,
        "destination": 352,
        "distance": 15.13
      },
      {
        "origin": 86,
        "destination": 4,
        "distance": 21.16
      },
      {
        "origin": 86,
        "destination": 54,
        "distance": 6.18
      },
      {
        "origin": 86,
        "destination": 82,
        "distance": 21.68
      },
      {
        "origin": 86,
        "destination": 131,
        "distance": 30.67
      },
      {
        "origin": 86,
        "destination": 253,
        "distance": 33.18
      },
      {
        "origin": 86,
        "destination": 323,
        "distance": 44.61
      },
      {
        "origin": 86,
        "destination": 329,
        "distance": 33.2
      },
      {
        "origin": 87,
        "destination": 232,
        "distance": 54.16
      },
      {
        "origin": 87,
        "destination": 280,
        "distance": 19.74
      },
      {
        "origin": 87,
        "destination": 288,
        "distance": 51.53
      },
      {
        "origin": 87,
        "destination": 314,
        "distance": 48.22
      },
      {
        "origin": 87,
        "destination": 327,
        "distance": 49.9
      },
      {
        "origin": 88,
        "destination": 10,
        "distance": 35.0
      },
      {
        "origin": 88,
        "destination": 69,
        "distance": 5.9
      },
      {
        "origin": 88,
        "destination": 93,
        "distance": 11.35
      },
      {
        "origin": 88,
        "destination": 159,
        "distance": 59.49
      },
      {
        "origin": 88,
        "destination": 204,
        "distance": 12.6
      },
      {
        "origin": 88,
        "destination": 278,
        "distance": 51.42
      },
      {
        "origin": 89,
        "destination": 67,
        "distance": 41.05
      },
      {
        "origin": 89,
        "destination": 149,
        "distance": 41.42
      },
      {
        "origin": 89,
        "destination": 305,
        "distance": 10.84
      },
      {
        "origin": 90,
        "destination": 29,
        "distance": 31.94
      },
      {
        "origin": 90,
        "destination": 73,
        "distance": 203.1
      },
      {
        "origin": 90,
        "destination": 92,
        "distance": 19.01
      },
      {
        "origin": 90,
        "destination": 222,
        "distance": 15.41
      },
      {
        "origin": 90,
        "destination": 292,
        "distance": 10.11
      },
      {
        "origin": 91,
        "destination": 122,
        "distance": 16.45
      },
      {
        "origin": 91,
        "destination": 175,
        "distance": 29.36
      },
      {
        "origin": 91,
        "destination": 261,
        "distance": 35.85
      },
      {
        "origin": 91,
        "destination": 281,
        "distance": 21.01
      },
      {
        "origin": 91,
        "destination": 312,
        "distance": 24.41
      },
      {
        "origin": 92,
        "destination": 29,
        "distance": 48.26
      },
      {
        "origin": 92,
        "destination": 90,
        "distance": 19.01
      },
      {
        "origin": 92,
        "destination": 174,
        "distance": 67.96
      },
      {
        "origin": 92,
        "destination": 222,
        "distance": 26.72
      },
      {
        "origin": 92,
        "destination": 229,
        "distance": 92.24
      },
      {
        "origin": 92,
        "destination": 292,
        "distance": 12.13
      },
      {
        "origin": 93,
        "destination": 10,
        "distance": 26.32
      },
      {
        "origin": 93,
        "destination": 69,
        "distance": 15.14
      },
      {
        "origin": 93,
        "destination": 88,
        "distance": 11.35
      },
      {
        "origin": 93,
        "destination": 204,
        "distance": 8.83
      },
      {
        "origin": 94,
        "destination": 3,
        "distance": 157.79
      },
      {
        "origin": 94,
        "destination": 191,
        "distance": 89.19
      },
      {
        "origin": 94,
        "destination": 197,
        "distance": 118.3
      },
      {
        "origin": 94,
        "destination": 319,
        "distance": 87.22
      },
      {
        "origin": 95,
        "destination": 23,
        "distance": 50.41
      },
      {
        "origin": 95,
        "destination": 28,
        "distance": 19.08
      },
      {
        "origin": 95,
        "destination": 70,
        "distance": 54.02
      },
      {
        "origin": 95,
        "destination": 109,
        "distance": 31.25
      },
      {
        "origin": 95,
        "destination": 136,
        "distance": 11.18
      },
      {
        "origin": 95,
        "destination": 239,
        "distance": 15.42
      },
      {
        "origin": 95,
        "destination": 244,
        "distance": 44.44
      },
      {
        "origin": 96,
        "destination": 259,
        "distance": 14.89
      },
      {
        "origin": 96,
        "destination": 285,
        "distance": 9.92
      },
      {
        "origin": 97,
        "destination": 11,
        "distance": 8.31
      },
      {
        "origin": 97,
        "destination": 129,
        "distance": 11.04
      },
      {
        "origin": 97,
        "destination": 183,
        "distance": 11.96
      },
      {
        "origin": 97,
        "destination": 224,
        "distance": 25.88
      },
      {
        "origin": 98,
        "destination": 37,
        "distance": 18.68
      },
      {
        "origin": 98,
        "destination": 44,
        "distance": 1.87
      },
      {
        "origin": 98,
        "destination": 48,
        "distance": 22.45
      },
      {
        "origin": 98,
        "destination": 163,
        "distance": 44.85
      },
      {
        "origin": 98,
        "destination": 273,
        "distance": 11.68
      },
      {
        "origin": 99,
        "destination": 1,
        "distance": 100.84
      },
      {
        "origin": 99,
        "destination": 130,
        "distance": 67.2
      },
      {
        "origin": 99,
        "destination": 210,
        "distance": 101.56
      },
      {
        "origin": 99,
        "destination": 298,
        "distance": 96.5
      },
      {
        "origin": 100,
        "destination": 150,
        "distance": 122.59
      },
      {
        "origin": 100,
        "destination": 230,
        "distance": 38.32
      },
      {
        "origin": 101,
        "destination": 7,
        "distance": 68.9
      },
      {
        "origin": 101,
        "destination": 19,
        "distance": 102.16
      },
      {
        "origin": 101,
        "destination": 129,
        "distance": 65.21
      },
      {
        "origin": 101,
        "destination": 146,
        "distance": 61.54
      },
      {
        "origin": 101,
        "destination": 224,
        "distance": 49.39
      },
      {
        "origin": 101,
        "destination": 252,
        "distance": 63.02
      },
      {
        "origin": 102,
        "destination": 57,
        "distance": 5.35
      },
      {
        "origin": 102,
        "destination": 129,
        "distance": 9.08
      },
      {
        "origin": 102,
        "destination": 143,
        "distance": 11.19
      },
      {
        "origin": 102,
        "destination": 224,
        "distance": 20.78
      },
      {
        "origin": 102,
        "destination": 260,
        "distance": 11.39
      },
      {
        "origin": 102,
        "destination": 338,
        "distance": 14.14
      },
      {
        "origin": 103,
        "destination": 159,
        "distance": 38.4
      },
      {
        "origin": 103,
        "destination": 212,
        "distance": 78.69
      },
      {
        "origin": 103,
        "destination": 223,
        "distance": 65.52
      },
      {
        "origin": 104,
        "destination": 22,
        "distance": 11.94
      },
      {
        "origin": 104,
        "destination": 155,
        "distance": 6.2
      },
      {
        "origin": 104,
        "destination": 172,
        "distance": 5.23
      },
      {
        "origin": 104,
        "destination": 200,
        "distance": 20.73
      },
      {
        "origin": 104,
        "destination": 303,
        "distance": 3.26
      },
      {
        "origin": 104,
        "destination": 307,
        "distance": 5.2
      },
      {
        "origin": 105,
        "destination": 8,
        "distance": 7.39
      },
      {
        "origin": 105,
        "destination": 123,
        "distance": 2.83
      },
      {
        "origin": 105,
        "destination": 140,
        "distance": 12.84
      },
      {
        "origin": 105,
        "destination": 171,
        "distance": 12.42
      },
      {
        "origin": 105,
        "destination": 213,
        "distance": 8.96
      },
      {
        "origin": 105,
        "destination": 268,
        "distance": 5.0
      },
      {
        "origin": 105,
        "destination": 283,
        "distance": 10.44
      },
      {
        "origin": 105,
        "destination": 332,
        "distance": 5.46
      },
      {
        "origin": 106,
        "destination": 46,
        "distance": 26.21
      },
      {
        "origin": 106,
        "destination": 206,
        "distance": 47.51
      },
      {
        "origin": 106,
        "destination": 245,
        "distance": 34.23
      },
      {
        "origin": 107,
        "destination": 142,
        "distance": 36.6
      },
      {
        "origin": 107,
        "destination": 176,
        "distance": 37.12
      },
      {
        "origin": 107,
        "destination": 325,
        "distance": 16.3
      },
      {
        "origin": 107,
        "destination": 334,
        "distance": 21.28
      },
      {
        "origin": 108,
        "destination": 55,
        "distance": 6.11
      },
      {
        "origin": 108,
        "destination": 56,
        "distance": 7.86
      },
      {
        "origin": 108,
        "destination": 112,
        "distance": 3.52
      },
      {
        "origin": 108,
        "destination": 137,
        "distance": 1.12
      },
      {
        "origin": 108,
        "destination": 240,
        "distance": 12.72
      },
      {
        "origin": 109,
        "destination": 28,
        "distance": 29.33
      },
      {
        "origin": 109,
        "destination": 70,
        "distance": 24.81
      },
      {
        "origin": 109,
        "destination": 95,
        "distance": 31.25
      },
      {
        "origin": 109,
        "destination": 136,
        "distance": 18.83
      },
      {
        "origin": 109,
        "destination": 182,
        "distance": 37.86
      },
      {
        "origin": 109,
        "destination": 236,
        "distance": 43.47
      },
      {
        "origin": 109,
        "destination": 239,
        "distance": 11.52
      },
      {
        "origin": 110,
        "destination": 38,
        "distance": 73.55
      },
      {
        "origin": 110,
        "destination": 60,
        "distance": 40.74
      },
      {
        "origin": 110,
        "destination": 147,
        "distance": 65.4
      },
      {
        "origin": 110,
        "destination": 196,
        "distance": 55.09
      },
      {
        "origin": 110,
        "destination": 246,
        "distance": 20.07
      },
      {
        "origin": 110,
        "destination": 308,
        "distance": 68.17
      },
      {
        "origin": 111,
        "destination": 31,
        "distance": 10.19
      },
      {
        "origin": 111,
        "destination": 142,
        "distance": 19.79
      },
      {
        "origin": 111,
        "destination": 170,
        "distance": 15.76
      },
      {
        "origin": 111,
        "destination": 176,
        "distance": 26.36
      },
      {
        "origin": 111,
        "destination": 216,
        "distance": 39.78
      },
      {
        "origin": 111,
        "destination": 279,
        "distance": 24.6
      },
      {
        "origin": 112,
        "destination": 42,
        "distance": 3.3
      },
      {
        "origin": 112,
        "destination": 55,
        "distance": 3.48
      },
      {
        "origin": 112,
        "destination": 56,
        "distance": 5.23
      },
      {
        "origin": 112,
        "destination": 108,
        "distance": 3.52
      },
      {
        "origin": 112,
        "destination": 137,
        "distance": 3.9
      },
      {
        "origin": 112,
        "destination": 240,
        "distance": 8.95
      },
      {
        "origin": 113,
        "destination": 13,
        "distance": 6.32
      },
      {
        "origin": 113,
        "destination": 15,
        "distance": 10.05
      },
      {
        "origin": 113,
        "destination": 45,
        "distance": 8.26
      },
      {
        "origin": 113,
        "destination": 134,
        "distance": 10.73
      },
      {
        "origin": 113,
        "destination": 174,
        "distance": 29.5
      },
      {
        "origin": 113,
        "destination": 229,
        "distance": 7.61
      },
      {
        "origin": 113,
        "destination": 316,
        "distance": 13.09
      },
      {
        "origin": 114,
        "destination": 157,
        "distance": 72.12
      },
      {
        "origin": 114,
        "destination": 233,
        "distance": 137.02
      },
      {
        "origin": 114,
        "destination": 333,
        "distance": 57.19
      },
      {
        "origin": 115,
        "destination": 17,
        "distance": 70.13
      },
      {
        "origin": 115,
        "destination": 228,
        "distance": 25.96
      },
      {
        "origin": 115,
        "destination": 269,
        "distance": 15.06
      },
      {
        "origin": 116,
        "destination": 221,
        "distance": 7.45
      },
      {
        "origin": 116,
        "destination": 310,
        "distance": 7.61
      },
      {
        "origin": 116,
        "destination": 322,
        "distance": 5.09
      },
      {
        "origin": 116,
        "destination": 328,
        "distance": 7.67
      },
      {
        "origin": 117,
        "destination": 21,
        "distance": 117.31
      },
      {
        "origin": 117,
        "destination": 33,
        "distance": 136.79
      },
      {
        "origin": 117,
        "destination": 73,
        "distance": 83.76
      },
      {
        "origin": 117,
        "destination": 78,
        "distance": 89.1
      },
      {
        "origin": 117,
        "destination": 210,
        "distance": 98.15
      },
      {
        "origin": 118,
        "destination": 58,
        "distance": 4.65
      },
      {
        "origin": 118,
        "destination": 65,
        "distance": 30.92
      },
      {
        "origin": 118,
        "destination": 188,
        "distance": 29.25
      },
      {
        "origin": 118,
        "destination": 286,
        "distance": 11.22
      },
      {
        "origin": 118,
        "destination": 306,
        "distance": 15.8
      },
      {
        "origin": 119,
        "destination": 18,
        "distance": 10.27
      },
      {
        "origin": 119,
        "destination": 124,
        "distance": 17.78
      },
      {
        "origin": 119,
        "destination": 180,
        "distance": 37.8
      },
      {
        "origin": 119,
        "destination": 282,
        "distance": 45.74
      },
      {
        "origin": 120,
        "destination": 66,
        "distance": 53.04
      },
      {
        "origin": 120,
        "destination": 271,
        "distance": 22.61
      },
      {
        "origin": 120,
        "destination": 311,
        "distance": 20.08
      },
      {
        "origin": 120,
        "destination": 330,
        "distance": 31.85
      },
      {
        "origin": 121,
        "destination": 41,
        "distance": 6.72
      },
      {
        "origin": 121,
        "destination": 56,
        "distance": 20.63
      },
      {
        "origin": 121,
        "destination": 162,
        "distance": 151.95
      },
      {
        "origin": 121,
        "destination": 265,
        "distance": 12.11
      },
      {
        "origin": 121,
        "destination": 266,
        "distance": 6.19
      },
      {
        "origin": 122,
        "destination": 37,
        "distance": 13.75
      },
      {
        "origin": 122,
        "destination": 44,
        "distance": 34.33
      },
      {
        "origin": 122,
        "destination": 91,
        "distance": 16.45
      },
      {
        "origin": 122,
        "destination": 139,
        "distance": 10.03
      },
      {
        "origin": 122,
        "destination": 175,
        "distance": 27.49
      },
      {
        "origin": 122,
        "destination": 273,
        "distance": 23.73
      },
      {
        "origin": 122,
        "destination": 312,
        "distance": 33.9
      },
      {
        "origin": 123,
        "destination": 8,
        "distance": 8.87
      },
      {
        "origin": 123,
        "destination": 34,
        "distance": 7.5
      },
      {
        "origin": 123,
        "destination": 105,
        "distance": 2.83
      },
      {
        "origin": 123,
        "destination": 140,
        "distance": 13.74
      },
      {
        "origin": 123,
        "destination": 213,
        "distance": 13.25
      },
      {
        "origin": 123,
        "destination": 268,
        "distance": 4.11
      },
      {
        "origin": 123,
        "destination": 332,
        "distance": 5.13
      },
      {
        "origin": 124,
        "destination": 18,
        "distance": 34.56
      },
      {
        "origin": 124,
        "destination": 119,
        "distance": 17.78
      },
      {
        "origin": 124,
        "destination": 181,
        "distance": 53.65
      },
      {
        "origin": 124,
        "destination": 189,
        "distance": 58.27
      },
      {
        "origin": 124,
        "destination": 282,
        "distance": 45.22
      },
      {
        "origin": 125,
        "destination": 79,
        "distance": 76.13
      },
      {
        "origin": 125,
        "destination": 85,
        "distance": 21.71
      },
      {
        "origin": 125,
        "destination": 236,
        "distance": 96.34
      },
      {
        "origin": 125,
        "destination": 251,
        "distance": 20.01
      },